[{"score":[2,2,2,2,3,4,4,4,4,3,2,2],"name":"Díli, Timor-Leste","lat":-8.5568557,"lon":125.5603143,"country":"Timor-Leste","city":"Dili"},{"score":[1,2,2,3,4,5,5,5,5,4,3,2],"name":"Avarua District, Cook Islands","lat":-21.2129007,"lon":-159.7823059,"country":"Cook Islands","city":"null"},{"score":[2,3,3,3,4,5,5,5,4,3,2,1],"name":"Kinshasa, Democratic Republic of the Congo","lat":-4.4419311,"lon":15.2662931,"country":"Democratic Republic of the Congo","city":"Kinshasa"},{"score":[2,3,3,3,5,5,5,4,4,3,2,2],"name":"Lusaka, Zambia","lat":-15.3875259,"lon":28.3228165,"country":"Zambia","city":"Lusaka Province"},{"score":[4,4,4,4,4,3,4,4,4,5,4,4],"name":"Alexandria, Alexandria Governorate, Egypt","lat":31.2000924,"lon":29.9187387,"country":"Egypt","city":"Alexandria Governorate"},{"score":[2,3,3,2,3,4,5,4,3,2,2,1],"name":"Brazzaville, Republic of the Congo","lat":-4.2633597,"lon":15.2428853,"country":"Republic of the Congo","city":"Brazzaville"},{"score":[1,1,2,2,3,4,4,4,3,2,2,1],"name":"Skye, United Kingdom","lat":57.5359261,"lon":-6.226272499999999,"country":"United Kingdom","city":"Scotland"},{"score":[2,2,2,2,2,5,4,5,4,2,2,2],"name":"Vlissingen, Netherlands","lat":51.4536672,"lon":3.5709125,"country":"Netherlands","city":"Zeeland"},{"score":[2,2,2,3,4,5,5,5,5,4,4,3],"name":"Saint-Gilles, Reunion","lat":-21.0538749,"lon":55.2286827,"country":"Reunion","city":"Arrondissement of Saint-Paul"},{"score":[2,2,3,3,4,5,5,4,5,4,3,2],"name":"84100 Orange, France","lat":44.1380989,"lon":4.807511,"country":"France","city":"Provence-Alpes-Côte d\u0027Azur"},{"score":[1,1,2,3,4,5,5,5,4,3,2,1],"name":"Belgrade, Serbia","lat":44.786568,"lon":20.4489216,"country":"Serbia","city":"null"},{"score":[4,5,5,4,3,3,2,2,3,3,3,4],"name":"Christchurch, New Zealand","lat":-43.5320544,"lon":172.6362254,"country":"New Zealand","city":"Canterbury"},{"score":[4,4,4,3,3,3,3,2,2,4,4,5],"name":"Cancún, Quintana Roo, Mexico","lat":21.161908,"lon":-86.8515279,"country":"Mexico","city":"Quintana Roo"},{"score":[1,2,2,3,3,5,4,4,5,3,2,2],"name":"Varna, Bulgaria","lat":43.2140504,"lon":27.9147333,"country":"Bulgaria","city":"Varna"},{"score":[1,1,2,3,3,4,5,5,5,4,3,2],"name":"Seminyak, Kuta, Badung Regency, Bali, Indonesia","lat":-8.691289399999999,"lon":115.1681653,"country":"Indonesia","city":"Bali"},{"score":[1,1,1,1,1,1,1,1,1,1,1,1],"name":"Mogadishu, Somalia","lat":2.0469343,"lon":45.3181623,"country":"Somalia","city":"Banaadir"},{"score":[2,2,2,3,3,3,4,4,3,2,2,2],"name":"Birmingham, UK","lat":52.48624299999999,"lon":-1.890401,"country":"United Kingdom","city":"England"},{"score":[3,4,4,3,3,2,2,2,3,5,5,4],"name":"Taipei, Taiwan","lat":25.0329694,"lon":121.5654177,"country":"Taiwan","city":"null"},{"score":[5,5,5,4,2,2,2,2,2,2,3,4],"name":"San José Province, San José, Costa Rica","lat":9.9280694,"lon":-84.0907246,"country":"Costa Rica","city":"San José Province"},{"score":[1,1,2,3,4,4,4,4,3,2,2,2],"name":"Amsterdam, Netherlands","lat":52.3702157,"lon":4.895167900000001,"country":"Netherlands","city":"North Holland"},{"score":[4,3,4,5,5,5,4,4,5,5,4,4],"name":"Tenerife, Santa Cruz de Tenerife, Spain","lat":28.2915637,"lon":-16.6291304,"country":"Spain","city":"Canary Islands"},{"score":[3,4,4,4,3,3,4,4,3,2,2,2],"name":"Huế, Thua Thien Hue, Vietnam","lat":16.4498,"lon":107.5623501,"country":"Vietnam","city":"Thua Thien Hue"},{"score":[1,2,2,3,3,4,5,5,4,3,2,1],"name":"Lille, France","lat":50.62925,"lon":3.057256,"country":"France","city":"Hauts-de-France"},{"score":[1,1,1,2,2,4,5,5,2,2,2,1],"name":"Prague, Czechia","lat":50.0755381,"lon":14.4378005,"country":"Czechia","city":"null"},{"score":[3,3,4,4,5,5,5,5,5,5,4,3],"name":"Funchal, Portugal","lat":32.6669328,"lon":-16.9240554,"country":"Portugal","city":"Madeira"},{"score":[1,1,2,2,3,4,5,5,4,3,2,1],"name":"Vilnius, Lithuania","lat":54.6871555,"lon":25.2796514,"country":"Lithuania","city":"Vilnius County"},{"score":[2,2,3,3,4,5,5,5,5,4,3,2],"name":"17310 Lloret de Mar, Girona, Spain","lat":41.7005989,"lon":2.8398194,"country":"Spain","city":"Catalunya"},{"score":[3,3,3,4,5,5,4,5,4,4,3,3],"name":"Durban, South Africa","lat":-29.85868039999999,"lon":31.0218404,"country":"South Africa","city":"KwaZulu-Natal"},{"score":[2,3,2,2,3,3,3,3,4,1,1,1],"name":"Padang, Padang City, West Sumatra, Indonesia","lat":-0.9470831999999999,"lon":100.417181,"country":"Indonesia","city":"West Sumatra"},{"score":[5,5,4,2,2,1,1,1,1,3,5,5],"name":"Kolkata, West Bengal, India","lat":22.572646,"lon":88.36389500000001,"country":"India","city":"West Bengal"},{"score":[1,2,2,2,3,4,4,4,3,3,2,2],"name":"Halifax Regional Municipality, NS, Canada","lat":44.64876350000001,"lon":-63.5752387,"country":"Canada","city":"Nova Scotia"},{"score":[5,5,4,4,3,3,2,2,3,3,4,5],"name":"Grande-Terre, Guadeloupe","lat":16.2732353,"lon":-61.46689620000001,"country":"Guadeloupe","city":"Grande-Terre"},{"score":[5,5,5,4,3,3,3,2,2,3,4,5],"name":"St John\u0027s, Antigua and Barbuda","lat":17.1274104,"lon":-61.84677199999999,"country":"Antigua and Barbuda","city":"Saint John"},{"score":[2,2,3,4,5,4,2,2,2,4,3,2],"name":"Osaka, Osaka Prefecture, Japan","lat":34.6937378,"lon":135.5021651,"country":"Japan","city":"Osaka Prefecture"},{"score":[4,4,3,3,5,5,5,5,5,5,4,3],"name":"Bujumbura, Burundi","lat":-3.361378,"lon":29.3598782,"country":"Burundi","city":"Bujumbura Mairie"},{"score":[1,1,1,1,2,2,2,2,2,2,1,1],"name":"Kars, 36000 Kars Merkez/Kars, Turkey","lat":40.6013378,"lon":43.0974525,"country":"Turkey","city":"Kars"},{"score":[5,4,4,4,4,3,2,1,2,3,3,5],"name":"Dakar, Senegal","lat":14.7645042,"lon":-17.3660286,"country":"Senegal","city":"Dakar Region"},{"score":[2,2,2,2,3,5,5,5,5,2,2,2],"name":"Paris, France","lat":48.856614,"lon":2.3522219,"country":"France","city":"Île-de-France"},{"score":[3,3,3,3,4,5,5,5,5,4,3,3],"name":"Algiers, Sidi M\u0027Hamed, Algeria","lat":36.753768,"lon":3.0587561,"country":"Algeria","city":"Algiers Province"},{"score":[5,4,4,4,3,2,2,1,1,2,3,4],"name":"Monrovia, Liberia","lat":6.2907432,"lon":-10.7605239,"country":"Liberia","city":"Montserrado"},{"score":[2,2,3,4,3,2,2,2,3,4,5,3],"name":"Hanoi, Hoàn Kiếm, Hanoi, Vietnam","lat":21.0277644,"lon":105.8341598,"country":"Vietnam","city":"Hanoi"},{"score":[3,1,3,3,4,3,4,4,4,4,3,3],"name":"Makatea, French Polynesia","lat":-15.8452689,"lon":-148.251958,"country":"French Polynesia","city":"The Tuamotu and Gambier Islands"},{"score":[3,4,5,5,4,4,4,3,4,3,3,3],"name":"Willemstad, Curaçao","lat":12.1224221,"lon":-68.8824233,"country":"Curaçao","city":"Curaçao"},{"score":[5,5,5,2,2,1,1,1,1,1,3,5],"name":"Yangon, Myanmar (Burma)","lat":16.8660694,"lon":96.19513200000002,"country":"Myanmar (Burma)","city":"Yangon Region"},{"score":[2,2,3,4,5,5,5,5,5,5,4,3],"name":"Muğla Province, Turkey","lat":37.1835819,"lon":28.4863963,"country":"Turkey","city":"Muğla Province"},{"score":[3,3,3,2,2,2,2,2,2,3,4,3],"name":"Phú Quốc, Phu Quoc, Kien Giang, Vietnam","lat":10.289879,"lon":103.98402,"country":"Vietnam","city":"Kien Giang"},{"score":[3,3,4,4,4,2,2,2,3,4,5,3],"name":"Tripoli, Libya","lat":32.8872094,"lon":13.1913383,"country":"Libya","city":"Tripoli District"},{"score":[2,2,3,3,4,5,5,5,4,3,2,2],"name":"Podgorica, Montenegro","lat":42.4304196,"lon":19.2593642,"country":"Montenegro","city":"Podgorica Municipality"},{"score":[5,5,4,3,2,2,2,3,4,4,5,5],"name":"Accra, Ghana","lat":5.6037168,"lon":-0.1869644,"country":"Ghana","city":"Greater Accra Region"},{"score":[5,5,4,3,3,3,2,2,2,3,3,5],"name":"Phnom Penh, Cambodia","lat":11.5448729,"lon":104.8921668,"country":"Cambodia","city":"Phnom Penh"},{"score":[5,5,5,5,4,4,4,4,4,3,4,5],"name":"Kingston, Jamaica","lat":18.0178743,"lon":-76.8099041,"country":"Jamaica","city":"St. Andrew Parish"},{"score":[1,2,2,3,4,5,5,5,4,3,2,2],"name":"Ohrid, Macedonia (FYROM)","lat":41.1230977,"lon":20.8016481,"country":"Macedonia (FYROM)","city":"Ohrid"},{"score":[1,1,2,2,3,4,4,4,3,2,2,1],"name":"Rotterdam, Netherlands","lat":51.9244201,"lon":4.4777326,"country":"Netherlands","city":"South Holland"},{"score":[2,2,2,3,4,5,5,5,4,3,3,3],"name":"Port Louis, Mauritius","lat":-20.1608912,"lon":57.5012222,"country":"Mauritius","city":"Port Louis District"},{"score":[3,3,4,4,4,3,3,3,3,4,4,3],"name":"Mexico City, CDMX, Mexico","lat":19.4326077,"lon":-99.133208,"country":"Mexico","city":"Mexico City"},{"score":[4,3,2,2,1,1,1,1,1,1,2,4],"name":"Mecca Saudi Arabia","lat":21.3890824,"lon":39.8579118,"country":"Saudi Arabia","city":"Makkah Province"},{"score":[1,1,2,3,3,5,4,4,5,3,2,1],"name":"Prishtina","lat":42.6629138,"lon":21.1655028,"country":"null","city":"null"},{"score":[5,4,4,3,2,2,2,2,2,3,4,5],"name":"Douala, Cameroon","lat":4.0510564,"lon":9.7678687,"country":"Cameroon","city":"Littoral"},{"score":[4,2,1,1,1,1,3,3,4,1,1,4],"name":"Niamey, Niger","lat":13.5115963,"lon":2.1253854,"country":"Niger","city":"Niamey Urban Community"},{"score":[4,4,5,5,5,4,4,4,5,5,5,4],"name":"Fuerteventura, Las Palmas, Spain","lat":28.3587436,"lon":-14.053676,"country":"Spain","city":"Canary Islands"},{"score":[2,2,3,3,4,5,5,5,4,3,2,2],"name":"Porto, Portugal","lat":41.1579438,"lon":-8.629105299999999,"country":"Portugal","city":"Porto District"},{"score":[4,4,4,4,2,2,2,2,2,2,3,4],"name":"Wellington, New Zealand","lat":-41.2864603,"lon":174.776236,"country":"New Zealand","city":"Wellington"},{"score":[4,4,4,5,5,4,4,4,5,5,4,4],"name":"Lanzarote, Las Palmas, Spain","lat":29.0468535,"lon":-13.5899733,"country":"Spain","city":"Canary Islands"},{"score":[5,4,3,3,2,2,1,1,1,3,4,5],"name":"Banjul, The Gambia","lat":13.4548761,"lon":-16.5790323,"country":"The Gambia","city":"Banjul"},{"score":[1,2,2,3,3,4,5,5,4,3,2,2],"name":"Cologne, Germany","lat":50.937531,"lon":6.9602786,"country":"Germany","city":"North Rhine-Westphalia"},{"score":[3,3,4,5,4,3,3,3,4,4,4,3],"name":"Beirut, Lebanon","lat":33.8937913,"lon":35.5017767,"country":"Lebanon","city":"Beirut Governorate"},{"score":[1,2,2,2,3,3,4,4,3,2,2,2],"name":"Newcastle upon Tyne, UK","lat":54.978252,"lon":-1.61778,"country":"United Kingdom","city":"England"},{"score":[4,5,5,4,3,3,2,2,2,3,3,4],"name":"Basse-Terre, Guadeloupe","lat":16.0341215,"lon":-61.6947193,"country":"Guadeloupe","city":"Basse-Terre"},{"score":[1,1,1,2,3,4,4,4,3,3,2,1],"name":"Astana 020000, Kazakhstan","lat":51.16052269999999,"lon":71.4703558,"country":"Kazakhstan","city":"null"},{"score":[1,1,3,3,4,5,4,4,4,3,2,1],"name":"Stuttgart, Germany","lat":48.7758459,"lon":9.1829321,"country":"Germany","city":"Baden-Württemberg"},{"score":[2,2,2,3,5,5,5,4,4,3,2,2],"name":"Brasília - Brasilia, Federal District, Brazil","lat":-15.7942287,"lon":-47.8821658,"country":"Brazil","city":"Federal District"},{"score":[2,3,3,4,5,5,5,4,5,4,3,2],"name":"8600 Lagos, Portugal","lat":37.1027881,"lon":-8.6730275,"country":"Portugal","city":"Faro District"},{"score":[1,2,2,3,3,5,4,4,4,3,2,2],"name":"Vienna, Austria","lat":48.2081743,"lon":16.3738189,"country":"Austria","city":"Vienna"},{"score":[2,2,3,4,5,4,4,4,5,5,4,3],"name":"Athens, Greece","lat":37.9838096,"lon":23.7275388,"country":"Greece","city":"null"},{"score":[2,2,2,3,4,5,5,5,5,4,3,2],"name":"Ajaccio, France","lat":41.919229,"lon":8.738635,"country":"France","city":"Corsica"},{"score":[3,3,3,4,4,4,3,4,4,3,3,3],"name":"Windhoek, Namibia","lat":-22.5608807,"lon":17.0657549,"country":"Namibia","city":"Khomas Region"},{"score":[1,2,2,3,4,5,5,5,4,3,2,1],"name":"Victoria, Seychelles","lat":-4.619143,"lon":55.4513149,"country":"Seychelles","city":"Mont Fleuri"},{"score":[5,5,5,5,5,4,4,3,3,4,4,5],"name":"Praia, Cape Verde","lat":14.93305,"lon":-23.5133267,"country":"Cape Verde","city":"Praia"},{"score":[1,1,2,2,2,4,5,4,4,2,2,1],"name":"Geneva, Switzerland","lat":46.2043907,"lon":6.1431577,"country":"Switzerland","city":"Geneva"},{"score":[4,4,4,3,2,2,1,1,2,3,4,4],"name":"Luxor, Luxor City, Luxor, Luxor Governorate, Egypt","lat":25.6872431,"lon":32.6396357,"country":"Egypt","city":"Luxor Governorate"},{"score":[2,2,3,4,5,5,4,5,5,4,3,2],"name":"Chania, Greece","lat":35.5138298,"lon":24.0180367,"country":"Greece","city":"null"},{"score":[1,1,1,2,2,4,4,4,2,2,1,1],"name":"Moscow, Russia","lat":55.755826,"lon":37.6172999,"country":"Russia","city":"null"},{"score":[4,5,4,4,3,3,2,1,2,2,2,4],"name":"Fort-de-France Bay, Martinique","lat":14.6160647,"lon":-61.0587804,"country":"Martinique","city":"Arrondissement of Fort-de-France"},{"score":[5,5,4,4,3,3,2,2,2,3,3,4],"name":"Îles des Saintes, Guadeloupe","lat":15.8600601,"lon":-61.6070648,"country":"Guadeloupe","city":"Basse-Terre"},{"score":[4,5,3,1,1,1,3,4,3,1,1,3],"name":"Colombo, Sri Lanka","lat":6.9270786,"lon":79.861243,"country":"Sri Lanka","city":"Western Province"},{"score":[3,3,3,4,5,5,4,4,5,5,4,3],"name":"Rabat, Morocco","lat":33.9715904,"lon":-6.8498129,"country":"Morocco","city":"Rabat-Sale-Zemmour-Zaer"},{"score":[1,1,2,2,3,4,5,5,4,3,2,1],"name":"Zürich, Switzerland","lat":47.3768866,"lon":8.541694,"country":"Switzerland","city":"Zurich"},{"score":[4,4,4,4,4,5,4,4,5,5,5,4],"name":"La Gomera, Santa Cruz de Tenerife, Spain","lat":28.1033035,"lon":-17.2193578,"country":"Spain","city":"Canary Islands"},{"score":[1,1,2,2,3,4,4,4,3,2,2,1],"name":"Winnipeg, MB, Canada","lat":49.895136,"lon":-97.13837439999999,"country":"Canada","city":"Manitoba"},{"score":[5,5,5,5,4,3,3,2,2,3,4,4],"name":"Acapulco, Guerrero, Mexico","lat":16.8531086,"lon":-99.8236533,"country":"Mexico","city":"Guerrero"},{"score":[3,3,4,5,5,5,5,5,5,5,4,3],"name":"Valletta, Malta","lat":35.8989085,"lon":14.5145528,"country":"Malta","city":"null"},{"score":[5,4,4,3,2,2,3,2,1,3,4,5],"name":"Pattaya City, Bang Lamung District, Chon Buri 20150, Thailand","lat":12.9276082,"lon":100.8770813,"country":"Thailand","city":"Chon Buri"},{"score":[5,5,5,5,4,3,3,3,2,3,4,4],"name":"Tulum, Quintana Roo, Mexico","lat":20.2114185,"lon":-87.46535019999999,"country":"Mexico","city":"Quintana Roo"},{"score":[4,5,5,5,4,4,3,2,2,2,3,4],"name":"Castries, St Lucia","lat":14.0101094,"lon":-60.98746869999999,"country":"Saint Lucia","city":"Castries"},{"score":[2,2,2,3,3,4,5,5,4,3,2,2],"name":"London, UK","lat":51.5073509,"lon":-0.1277583,"country":"United Kingdom","city":"England"},{"score":[3,2,3,3,4,4,4,5,5,5,4,3],"name":"Nuku\u0027alofa, Tonga","lat":-21.1393418,"lon":-175.204947,"country":"Tonga","city":"Tongatapu"},{"score":[4,4,4,3,2,2,2,2,3,3,5,4],"name":"Cairo, Cairo Governorate, Egypt","lat":30.0444196,"lon":31.2357116,"country":"Egypt","city":"Cairo Governorate"},{"score":[3,4,5,5,5,3,2,2,3,4,4,3],"name":"Hurghada, Qesm Hurghada, Red Sea Governorate, Egypt","lat":27.2578957,"lon":33.8116067,"country":"Egypt","city":"Red Sea Governorate"},{"score":[3,3,3,4,4,3,2,2,3,4,4,3],"name":"Buenos Aires, Argentina","lat":-34.6036844,"lon":-58.3815591,"country":"Argentina","city":"Buenos Aires"},{"score":[1,2,2,3,3,4,4,3,4,3,2,1],"name":"Cork, Ireland","lat":51.8968917,"lon":-8.4863157,"country":"Ireland","city":"County Cork"},{"score":[5,5,4,3,2,2,2,2,2,3,4,5],"name":"Macau","lat":22.198745,"lon":113.543873,"country":"Macau","city":"null"},{"score":[5,5,4,4,3,2,2,2,3,2,3,3],"name":"Malé, Maldives","lat":4.1754959,"lon":73.5093474,"country":"Maldives","city":"Male"},{"score":[3,3,3,4,5,5,4,4,5,4,3,3],"name":"Ibiza, Balearic Islands, Spain","lat":39.0200099,"lon":1.4821482,"country":"Spain","city":"Balearic Islands"},{"score":[1,1,2,2,3,4,5,5,4,3,2,1],"name":"Tallinn, Estonia","lat":59.43696079999999,"lon":24.7535747,"country":"Estonia","city":"Harju County"},{"score":[4,5,4,4,3,3,3,3,3,2,2,3],"name":"Ko Samui, Ko Samui District, Surat Thani, Thailand","lat":9.5120168,"lon":100.0135929,"country":"Thailand","city":"Surat Thani"},{"score":[4,4,4,4,3,3,2,3,3,2,2,4],"name":"Santiago, Santiago Metropolitan Region, Chile","lat":-33.4488897,"lon":-70.6692655,"country":"Chile","city":"Santiago Metropolitan Region"},{"score":[3,2,2,3,4,5,5,5,4,4,4,3],"name":"Honiara, Solomon Islands","lat":-9.4456381,"lon":159.9728999,"country":"Solomon Islands","city":"Capital Territory"},{"score":[4,5,4,4,3,2,2,1,2,3,4,5],"name":"Freetown, Sierra Leone","lat":8.4656765,"lon":-13.2317225,"country":"Sierra Leone","city":"Western Area"},{"score":[1,1,1,3,3,4,5,5,5,3,3,1],"name":"Jakarta, Indonesia","lat":-6.17511,"lon":106.8650395,"country":"Indonesia","city":"Jakarta"},{"score":[5,5,4,2,2,2,2,2,2,2,2,5],"name":"Canberra ACT 2601, Australia","lat":-35.2809368,"lon":149.1300092,"country":"Australia","city":"Australian Capital Territory"},{"score":[5,5,5,5,4,3,2,2,3,4,5,5],"name":"Charlotte Amalie, St Thomas 00802, USVI","lat":18.3419004,"lon":-64.9307007,"country":"U.S. Virgin Islands","city":"St. Thomas"},{"score":[1,1,1,2,2,3,3,3,2,2,1,1],"name":"Nuuk, Greenland","lat":64.18140989999999,"lon":-51.6941381,"country":"Greenland","city":"Sermersooq Municipality"},{"score":[5,4,3,2,2,3,3,3,2,3,4,4],"name":"Chiang Mai, Mueang Chiang Mai District, Chiang Mai, Thailand","lat":18.7060641,"lon":98.9817163,"country":"Thailand","city":"Chiang Mai"},{"score":[2,2,2,3,3,2,2,2,3,4,3,2],"name":"Nagasaki, Nagasaki Prefecture, Japan","lat":32.7502856,"lon":129.877667,"country":"Japan","city":"Nagasaki Prefecture"},{"score":[4,5,5,4,3,2,1,1,2,3,4,5],"name":"Manama, Bahrain","lat":26.2285161,"lon":50.5860497,"country":"Bahrain","city":"Capital Governorate"},{"score":[2,2,2,2,2,3,5,5,3,2,2,2],"name":"York, UK","lat":53.95996510000001,"lon":-1.0872979,"country":"United Kingdom","city":"England"},{"score":[2,2,2,2,2,2,4,4,2,2,2,2],"name":"Dublin, Ireland","lat":53.3498053,"lon":-6.2603097,"country":"Ireland","city":"County Dublin"},{"score":[2,2,3,3,5,5,5,5,5,4,3,2],"name":"Edirne, Edirne Merkez/Edirne, Turkey","lat":41.67712969999999,"lon":26.5557145,"country":"Turkey","city":"Edirne"},{"score":[3,1,1,1,1,3,4,3,1,1,1,1],"name":"Kuala Lumpur, Federal Territory of Kuala Lumpur, Malaysia","lat":3.139003,"lon":101.686855,"country":"Malaysia","city":"Federal Territory of Kuala Lumpur"},{"score":[5,5,5,4,4,3,2,2,2,3,4,5],"name":"Puerto Vallarta, Jalisco, Mexico","lat":20.653407,"lon":-105.2253316,"country":"Mexico","city":"Jalisco"},{"score":[2,2,3,4,5,5,4,3,4,4,3,2],"name":"Aleppo, Syria","lat":36.2021047,"lon":37.1342603,"country":"Syria","city":"Aleppo Governorate"},{"score":[4,4,3,3,3,2,2,2,2,3,4,5],"name":"Bangkok, Thailand","lat":13.7563309,"lon":100.5017651,"country":"Thailand","city":"null"},{"score":[5,5,5,5,4,4,4,4,4,4,4,5],"name":"Caracas, Capital District, Venezuela","lat":10.4805937,"lon":-66.90360629999999,"country":"Venezuela","city":"Capital District"},{"score":[5,5,4,3,2,2,3,3,3,3,4,5],"name":"Yaounde, Cameroon","lat":3.8480325,"lon":11.5020752,"country":"Cameroon","city":"Centre"},{"score":[5,5,5,5,3,2,2,2,2,3,5,5],"name":"Guatemala City, Guatemala","lat":14.6349149,"lon":-90.5068824,"country":"Guatemala","city":"Guatemala Department"},{"score":[1,1,1,1,1,1,1,1,1,1,1,1],"name":"Asmara, Eritrea","lat":15.3228767,"lon":38.9250517,"country":"Eritrea","city":"Central"},{"score":[1,1,1,2,2,4,5,4,2,2,1,1],"name":"Minsk, Belarus","lat":53.90453979999999,"lon":27.5615244,"country":"Belarus","city":"Minsk Region"},{"score":[1,1,1,3,3,4,5,5,5,3,3,1],"name":"Denpasar, Denpasar City, Bali, Indonesia","lat":-8.670458199999999,"lon":115.2126293,"country":"Indonesia","city":"Bali"},{"score":[2,2,2,2,1,1,1,1,1,3,2,2],"name":"Darjeeling, West Bengal, India","lat":27.0360066,"lon":88.2626751,"country":"India","city":"West Bengal"},{"score":[1,1,1,2,3,3,4,4,3,2,1,1],"name":"Tórshavn, Faroe Islands","lat":62.007864,"lon":-6.790981700000001,"country":"Faroe Islands","city":"Streymoy"},{"score":[1,2,3,3,4,4,5,5,4,3,2,2],"name":"25000 Besançon, France","lat":47.237829,"lon":6.024053899999999,"country":"France","city":"Bourgogne-Franche-Comté"},{"score":[1,1,2,2,3,4,4,5,4,3,2,1],"name":"Kraków, Poland","lat":50.06465009999999,"lon":19.9449799,"country":"Poland","city":"Lesser Poland Voivodeship"},{"score":[5,5,5,5,5,4,3,2,2,3,3,4],"name":"Kingstown, St Vincent and the Grenadines","lat":13.1600249,"lon":-61.2248157,"country":"Saint Vincent and the Grenadines","city":"Saint George"},{"score":[3,4,5,3,2,1,1,2,3,4,5,4],"name":"New Territories, Hong Kong","lat":22.3704243,"lon":114.1234149,"country":"Hong Kong","city":"New Territories"},{"score":[1,1,2,3,4,5,5,5,4,3,2,1],"name":"Deauville, France","lat":49.353976,"lon":0.075122,"country":"France","city":"Normandy"},{"score":[1,1,2,3,4,5,5,5,5,4,3,2],"name":"Ubud, Gianyar, Bali, Indonesia","lat":-8.5068536,"lon":115.2624778,"country":"Indonesia","city":"Bali"},{"score":[3,3,2,2,3,4,5,5,5,4,3,2],"name":"Dar es Salaam, Tanzania","lat":-6.792354,"lon":39.2083284,"country":"Tanzania","city":"Dar es Salaam"},{"score":[3,4,4,3,3,3,3,3,3,4,4,3],"name":"Johannesburg, South Africa","lat":-26.2041028,"lon":28.0473051,"country":"South Africa","city":"Gauteng"},{"score":[5,4,3,4,3,3,2,1,2,3,4,5],"name":"Bissau, Guinea-Bissau","lat":11.8816553,"lon":-15.6177942,"country":"Guinea-Bissau","city":"Bissau"},{"score":[5,5,5,4,3,2,3,2,2,3,4,5],"name":"Miami, FL, USA","lat":25.7616798,"lon":-80.1917902,"country":"United States","city":"Florida"},{"score":[2,2,2,3,4,5,5,4,4,3,2,2],"name":"Francistown, Botswana","lat":-21.1661005,"lon":27.5143603,"country":"Botswana","city":"North-East District"},{"score":[2,3,3,4,4,3,3,2,3,4,4,3],"name":"Thimphu, Bhutan","lat":27.4727924,"lon":89.6392863,"country":"Bhutan","city":"Thimphu"},{"score":[5,4,3,3,1,2,3,3,4,4,5,5],"name":"Khao Lak, Takua Pa District, Phang-nga, Thailand","lat":8.7039641,"lon":98.2582605,"country":"Thailand","city":"Phang-nga"},{"score":[1,1,2,2,3,4,4,4,3,2,2,1],"name":"Québec City, QC, Canada","lat":46.8138783,"lon":-71.2079809,"country":"Canada","city":"Quebec"},{"score":[1,2,2,3,3,4,4,3,4,3,2,1],"name":"Galway, Ireland","lat":53.270668,"lon":-9.0567905,"country":"Ireland","city":"County Galway"},{"score":[1,2,2,2,3,4,5,5,4,3,2,1],"name":"Zagreb, Croatia","lat":45.8150108,"lon":15.9819189,"country":"Croatia","city":"null"},{"score":[2,2,3,3,4,4,4,4,4,3,3,3],"name":"Harare, Zimbabwe","lat":-17.8251657,"lon":31.03351,"country":"Zimbabwe","city":"Harare Province"},{"score":[1,1,1,4,5,5,5,5,5,4,3,1],"name":"Darwin NT, Australia","lat":-12.4634403,"lon":130.8456418,"country":"Australia","city":"Northern Territory"},{"score":[2,3,3,4,5,4,3,3,4,5,4,2],"name":"Tunis, Tunisia","lat":36.8064948,"lon":10.1815316,"country":"Tunisia","city":"Tunis"},{"score":[3,3,4,4,5,3,2,2,4,5,3,3],"name":"Seville, Spain","lat":37.3890924,"lon":-5.9844589,"country":"Spain","city":"Andalusia"},{"score":[1,1,2,2,4,5,4,5,5,2,2,1],"name":"Bratislava, Slovakia","lat":48.1485965,"lon":17.1077478,"country":"Slovakia","city":"null"},{"score":[1,1,1,1,2,2,5,4,2,2,1,1],"name":"Helsinki, Finland","lat":60.16985569999999,"lon":24.9383791,"country":"Finland","city":"null"},{"score":[5,4,4,3,2,1,1,2,2,2,3,4],"name":"Ho Chi Minh City, Ho Chi Minh, Vietnam","lat":10.8230989,"lon":106.6296638,"country":"Vietnam","city":"Ho Chi Minh"},{"score":[4,4,4,4,3,2,2,2,2,2,3,4],"name":"Panama City, Panama","lat":8.9823792,"lon":-79.51986959999999,"country":"Panama","city":"Panama"},{"score":[1,2,2,3,4,4,5,4,4,3,2,1],"name":"Frankfurt, Germany","lat":50.1109221,"lon":8.6821267,"country":"Germany","city":"Hesse"},{"score":[2,2,3,4,5,4,3,3,4,4,3,2],"name":"Nicosia, Cyprus","lat":35.1855659,"lon":33.38227639999999,"country":"Cyprus","city":"Nicosia"},{"score":[2,2,2,3,4,5,5,5,4,3,3,2],"name":"Rodrigues District, Mauritius","lat":-19.7026025,"lon":63.4272185,"country":"Mauritius","city":"Rodrigues District"},{"score":[1,2,2,3,3,4,5,5,4,3,2,2],"name":"Brussels, Belgium","lat":50.8503396,"lon":4.3517103,"country":"Belgium","city":"Brussels"},{"score":[2,2,2,3,4,3,2,2,3,4,3,2],"name":"Kyoto, Kyoto Prefecture, Japan","lat":35.0116363,"lon":135.7680294,"country":"Japan","city":"Kyoto Prefecture"},{"score":[2,2,2,3,4,3,2,3,3,3,3,2],"name":"Akita, Akita Prefecture, Japan","lat":39.7199218,"lon":140.1035697,"country":"Japan","city":"Akita Prefecture"},{"score":[2,2,2,4,4,5,5,5,4,3,1,2],"name":"Dubrovnik, Croatia","lat":42.65066059999999,"lon":18.0944238,"country":"Croatia","city":"Dubrovnik-Neretva County"},{"score":[3,3,3,3,5,5,4,4,5,5,4,3],"name":"Los Angeles, CA, USA","lat":34.0522342,"lon":-118.2436849,"country":"United States","city":"California"},{"score":[2,3,3,4,5,5,5,5,5,4,3,2],"name":"Zakynthos, Greece","lat":37.7870331,"lon":20.8998759,"country":"Greece","city":"null"},{"score":[3,3,3,4,4,4,4,4,4,4,4,3],"name":"Cilaos, Reunion","lat":-21.136617,"lon":55.463134,"country":"Reunion","city":"Saint Pierre"},{"score":[2,2,2,3,4,5,5,5,5,4,3,2],"name":"Astrakhan, Astrakhan Oblast, Russia","lat":46.3588045,"lon":48.0599345,"country":"Russia","city":"Astrakhan Oblast"},{"score":[1,1,2,2,4,5,5,5,5,2,2,1],"name":"Budapest, Hungary","lat":47.497912,"lon":19.040235,"country":"Hungary","city":"null"},{"score":[2,2,2,3,4,5,5,5,5,4,4,3],"name":"Arrondissement of Saint-Benoît, Reunion","lat":-21.043737,"lon":55.717857,"country":"Reunion","city":"Saint-Benoît"},{"score":[2,3,3,4,5,5,4,4,5,4,4,4],"name":"Hamilton, Bermuda","lat":32.2945837,"lon":-64.7858887,"country":"Bermuda","city":"Pembroke Parish"},{"score":[1,1,1,2,2,2,2,2,2,2,1,1],"name":"Reykjavík, Iceland","lat":64.12652059999999,"lon":-21.8174392,"country":"Iceland","city":"null"},{"score":[5,5,5,5,4,2,2,2,2,5,5,5],"name":"Sana\u0027a, Yemen","lat":15.3694451,"lon":44.1910066,"country":"Yemen","city":"Capital Municipality"},{"score":[2,3,3,4,5,5,5,5,5,4,3,2],"name":"Agadir 80000, Morocco","lat":30.4277547,"lon":-9.5981072,"country":"Morocco","city":"Souss-Massa-Draa"},{"score":[2,2,3,4,5,5,5,5,5,3,3,3],"name":"São Paulo, State of São Paulo, Brazil","lat":-23.5505199,"lon":-46.63330939999999,"country":"Brazil","city":"State of São Paulo"},{"score":[1,2,2,3,4,5,5,5,5,4,3,2],"name":"21000, Split, Croatia","lat":43.5081323,"lon":16.4401935,"country":"Croatia","city":"Split-Dalmatia County"},{"score":[4,4,4,4,5,5,4,4,5,5,4,4],"name":"Gran Canaria, Las Palmas, Spain","lat":27.9202202,"lon":-15.5474373,"country":"Spain","city":"Canary Islands"},{"score":[1,2,2,2,3,4,5,5,3,2,2,2],"name":"Copenhagen, Denmark","lat":55.6760968,"lon":12.5683372,"country":"Denmark","city":"null"},{"score":[5,4,4,4,4,2,2,2,3,4,5,5],"name":"Mumbai, Maharashtra, India","lat":19.0759837,"lon":72.8776559,"country":"India","city":"Maharashtra"},{"score":[2,2,3,3,4,5,5,5,5,4,3,2],"name":"AD500 Andorra la Vella, Andorra","lat":42.50631740000001,"lon":1.5218355,"country":"Andorra","city":"Andorra la Vella"},{"score":[2,2,2,5,3,1,1,1,3,5,2,2],"name":"Kathmandu 44600, Nepal","lat":27.7172453,"lon":85.3239605,"country":"Nepal","city":"Central Development Region"},{"score":[5,5,5,5,3,2,2,2,2,4,5,5],"name":"Adelaide SA, Australia","lat":-34.9284989,"lon":138.6007456,"country":"Australia","city":"South Australia"},{"score":[5,5,5,5,4,3,2,2,3,3,4,5],"name":"Marigot, St Martin","lat":18.0675189,"lon":-63.0824656,"country":"Saint Martin","city":"Collectivity of Saint Martin"},{"score":[3,2,2,3,3,4,5,5,3,2,1,2],"name":"Libreville, Gabon","lat":0.4161976,"lon":9.4672676,"country":"Gabon","city":"Estuaire"},{"score":[1,1,2,3,3,4,5,5,4,3,2,1],"name":"Basel, Switzerland","lat":47.5595986,"lon":7.5885761,"country":"Switzerland","city":"Basel City"},{"score":[1,1,2,3,4,5,5,5,4,3,2,1],"name":"Chisinau, Moldova","lat":47.0104529,"lon":28.8638102,"country":"Moldova","city":"Chisinau"},{"score":[2,2,2,2,4,4,5,5,5,3,2,2],"name":"Tirana, Albania","lat":41.3275459,"lon":19.8186982,"country":"Albania","city":"Tirana County"},{"score":[2,3,4,5,5,5,5,5,5,4,3,3],"name":"Faro, Portugal","lat":37.0193548,"lon":-7.9304397,"country":"Portugal","city":"Faro District"},{"score":[5,4,3,3,3,2,2,1,2,2,4,5],"name":"Bangui, Central African Republic","lat":4.3946735,"lon":18.5581899,"country":"Central African Republic","city":"Bangui"},{"score":[1,2,3,3,3,4,5,5,4,3,2,2],"name":"Bruges, Belgium","lat":51.209348,"lon":3.2246995,"country":"Belgium","city":"Flanders"},{"score":[2,2,3,3,4,5,5,5,5,4,3,2],"name":"Apia, Samoa","lat":-13.8506958,"lon":-171.7513551,"country":"Samoa","city":"Upolu"},{"score":[2,3,3,4,5,4,3,3,4,5,4,3],"name":"Fes, Morocco","lat":34.0181246,"lon":-5.0078451,"country":"Morocco","city":"Fes-Boulemane"},{"score":[1,1,2,3,4,5,4,3,4,4,3,2],"name":"Tbilisi, Georgia","lat":41.7151377,"lon":44.827096,"country":"Georgia","city":"Tbilisi"},{"score":[1,1,1,2,2,4,5,4,2,2,2,1],"name":"Stockholm, Sweden","lat":59.32932349999999,"lon":18.0685808,"country":"Sweden","city":"Stockholm County"},{"score":[3,3,4,4,3,1,1,1,2,4,3,3],"name":"Kuwait City, Kuwait","lat":29.375859,"lon":47.9774052,"country":"Kuwait","city":"Al Asimah Governate"},{"score":[2,3,3,4,3,2,1,1,2,3,4,3],"name":"Baghdad, Iraq","lat":33.3128057,"lon":44.3614875,"country":"Iraq","city":"Baghdad Governorate"},{"score":[5,5,4,4,3,3,2,2,2,3,4,5],"name":"Playa del Carmen, Quintana Roo, Mexico","lat":20.6295586,"lon":-87.0738851,"country":"Mexico","city":"Quintana Roo"},{"score":[3,3,3,4,4,4,3,3,3,4,4,3],"name":"Piton de la Fournaise, Reunion","lat":-21.242499,"lon":55.7088893,"country":"Reunion","city":"null"},{"score":[2,2,2,2,3,4,4,4,3,2,2,2],"name":"Plymouth, UK","lat":50.3754565,"lon":-4.1426565,"country":"United Kingdom","city":"England"},{"score":[2,2,2,3,4,2,2,2,3,4,3,2],"name":"La Paz, Bolivia","lat":-16.489689,"lon":-68.11929359999999,"country":"Bolivia","city":"La Paz Department"},{"score":[1,1,2,3,4,5,5,5,4,3,2,2],"name":"Lilongwe, Malawi","lat":-13.9626121,"lon":33.7741195,"country":"Malawi","city":"Central Region"},{"score":[5,5,4,3,2,1,2,2,2,3,4,5],"name":"Tegucigalpa, Honduras","lat":14.0722751,"lon":-87.19213599999999,"country":"Honduras","city":"Francisco Morazán Department"},{"score":[1,2,1,2,3,3,4,4,3,2,1,1],"name":"Glasgow, UK","lat":55.864237,"lon":-4.251806,"country":"United Kingdom","city":"Scotland"},{"score":[2,2,3,4,5,5,4,4,5,4,3,2],"name":"Gavdos, 730 01, Greece","lat":34.846225,"lon":24.0844785,"country":"Greece","city":"null"},{"score":[2,2,2,2,3,4,4,4,3,2,2,1],"name":"Manchester, UK","lat":53.4807593,"lon":-2.2426305,"country":"United Kingdom","city":"England"},{"score":[5,5,4,4,3,3,3,3,3,2,2,3],"name":"Gan, Addu City, Maldives","lat":-0.6959529999999999,"lon":73.1556125,"country":"Maldives","city":"South Province"},{"score":[1,1,1,2,2,2,2,2,2,2,1,1],"name":"Lhasa, Tibet, China","lat":29.652491,"lon":91.17210999999999,"country":"China","city":"Tibet"},{"score":[2,2,3,4,5,5,4,4,5,4,3,2],"name":"Ramallah","lat":31.9037641,"lon":35.2034184,"country":"null","city":"null"},{"score":[2,2,3,4,4,4,3,3,3,4,3,2],"name":"Fukuoka, Fukuoka Prefecture, Japan","lat":33.5903547,"lon":130.4017155,"country":"Japan","city":"Fukuoka Prefecture"},{"score":[2,2,3,3,4,5,5,5,5,4,3,3],"name":"Essaouira, Morocco","lat":31.5084926,"lon":-9.7595041,"country":"Morocco","city":"Marrakesh-Tensift-El Haouz"},{"score":[5,5,4,2,2,2,2,2,2,2,2,4],"name":"Hobart TAS 7000, Australia","lat":-42.8821377,"lon":147.3271949,"country":"Australia","city":"Tasmania"},{"score":[4,3,3,3,2,2,3,4,3,3,3,4],"name":"Lome, Togo","lat":6.1724969,"lon":1.2313618,"country":"Togo","city":"Maritime Region"},{"score":[5,5,5,2,1,2,3,4,4,3,4,5],"name":"Mandalay, Myanmar (Burma)","lat":21.9588282,"lon":96.0891032,"country":"Myanmar (Burma)","city":"Mandalay Region"},{"score":[3,4,3,3,3,3,3,3,3,4,3,3],"name":"Pretoria, South Africa","lat":-25.7478676,"lon":28.2292712,"country":"South Africa","city":"Gauteng"},{"score":[4,3,3,3,2,2,2,2,2,3,3,3],"name":"Stanley FIQQ 1ZZ, Falkland Islands (Islas Malvinas)","lat":-51.6977129,"lon":-57.85166269999999,"country":"Falkland Islands (Islas Malvinas)","city":"East Falkland"},{"score":[4,4,5,4,4,3,2,2,2,3,4,4],"name":"Roseau, Dominica","lat":15.3091676,"lon":-61.37935539999999,"country":"Dominica","city":"Saint George Parish"},{"score":[1,1,1,2,2,5,4,5,4,2,1,1],"name":"Toronto, ON, Canada","lat":43.653226,"lon":-79.3831843,"country":"Canada","city":"Ontario"},{"score":[2,3,3,4,5,5,4,4,5,4,4,3],"name":"Rethimno 741 00, Greece","lat":35.3643615,"lon":24.4821552,"country":"Greece","city":"null"},{"score":[2,2,3,3,4,5,5,5,5,4,3,2],"name":"Aix-en-Provence, France","lat":43.529742,"lon":5.447426999999999,"country":"France","city":"Provence-Alpes-Côte d\u0027Azur"},{"score":[3,3,3,4,5,4,2,2,4,5,3,3],"name":"Marrakesh, Morocco","lat":31.6294723,"lon":-7.981084500000001,"country":"Morocco","city":"Marrakesh-Tensift-El Haouz"},{"score":[5,5,5,5,5,3,3,3,3,3,1,4],"name":"Bridgetown, Barbados","lat":13.0968511,"lon":-59.61448189999999,"country":"Barbados","city":"Saint Michael"},{"score":[3,4,3,3,3,4,4,4,4,4,3,3],"name":"Balikpapan, Balikpapan City, East Kalimantan, Indonesia","lat":-1.2379274,"lon":116.8528526,"country":"Indonesia","city":"East Kalimantan"},{"score":[5,5,4,3,5,5,5,5,5,5,5,5],"name":"Luanda, Angola","lat":-8.839987599999999,"lon":13.2894368,"country":"Angola","city":"Luanda Province"},{"score":[5,5,5,5,4,3,2,2,3,3,4,5],"name":"The Valley AI-2640, Anguilla","lat":18.2148129,"lon":-63.0574406,"country":"Anguilla","city":"null"},{"score":[2,2,2,2,4,5,5,5,4,2,2,2],"name":"Kabul, Afghanistan","lat":34.5553494,"lon":69.207486,"country":"Afghanistan","city":"Kabul"},{"score":[5,5,5,5,4,3,3,3,3,4,4,5],"name":"George Town, Cayman Islands","lat":19.2869323,"lon":-81.3674389,"country":"Cayman Islands","city":"George Town"},{"score":[4,5,4,4,3,3,2,2,2,3,3,4],"name":"La Desirade, Guadeloupe","lat":16.2262214,"lon":-61.1111936,"country":"Guadeloupe","city":"Grande-Terre"},{"score":[5,5,5,5,3,3,2,2,2,3,4,5],"name":"Nassau, The Bahamas","lat":25.0479835,"lon":-77.355413,"country":"The Bahamas","city":"New Providence"},{"score":[5,4,4,3,3,2,2,2,2,3,3,4],"name":"Malabo, Equatorial Guinea","lat":3.7504118,"lon":8.7371039,"country":"Equatorial Guinea","city":"Bioko Norte"},{"score":[3,3,2,3,4,5,5,5,5,4,3,2],"name":"Rio de Janeiro, State of Rio de Janeiro, Brazil","lat":-22.9068467,"lon":-43.1728965,"country":"Brazil","city":"State of Rio de Janeiro"},{"score":[1,1,1,2,4,3,1,1,3,2,2,1],"name":"Seoul, South Korea","lat":37.566535,"lon":126.9779692,"country":"South Korea","city":"Seoul"},{"score":[3,3,3,4,5,4,3,3,4,5,4,3],"name":"Djerba, Tunisia","lat":33.8075978,"lon":10.8451467,"country":"Tunisia","city":"Medenine"},{"score":[1,1,2,3,3,4,5,4,4,3,2,1],"name":"Düsseldorf, Germany","lat":51.2277411,"lon":6.7734556,"country":"Germany","city":"North Rhine-Westphalia"},{"score":[1,1,2,2,2,3,3,3,3,2,2,1],"name":"Ljubljana, Slovenia","lat":46.0569465,"lon":14.5057515,"country":"Slovenia","city":"Ljubljana"},{"score":[1,2,4,4,5,3,2,2,3,4,3,2],"name":"Ashgabat, Turkmenistan","lat":37.9600766,"lon":58.32606289999999,"country":"Turkmenistan","city":"Ashgabat"},{"score":[2,2,3,4,5,5,5,5,5,4,3,2],"name":"Alice Springs NT 0870, Australia","lat":-23.698042,"lon":133.8807471,"country":"Australia","city":"Northern Territory"},{"score":[2,3,3,4,5,5,5,5,5,5,4,3],"name":"Heraklion, Greece","lat":35.3387352,"lon":25.1442126,"country":"Greece","city":"null"},{"score":[1,1,1,1,1,1,1,1,1,1,1,1],"name":"Bishkek, Kyrgyzstan","lat":42.8746212,"lon":74.5697617,"country":"Kyrgyzstan","city":"Chuy Province"},{"score":[5,5,5,4,3,3,3,3,2,2,3,4],"name":"Cartagena, Cartagena Province, Bolivar, Colombia","lat":10.3910485,"lon":-75.4794257,"country":"Colombia","city":"Bolivar"},{"score":[1,1,1,1,1,1,1,1,1,1,1,1],"name":"Pyongyang, North Korea","lat":39.0392193,"lon":125.7625241,"country":"North Korea","city":"Pyongyang"},{"score":[5,5,4,4,3,2,2,2,3,4,4,5],"name":"Ko Lanta District, Krabi, Thailand","lat":7.624367699999999,"lon":99.0792263,"country":"Thailand","city":"Krabi"},{"score":[5,5,5,4,3,2,2,2,2,3,4,4],"name":"Varadero, Cuba","lat":23.179858,"lon":-81.1885293,"country":"Cuba","city":"Matanzas"},{"score":[1,1,1,1,2,2,3,2,2,1,1,1],"name":"Irkutsk, Irkutsk Oblast, Russia","lat":52.28697409999999,"lon":104.3050183,"country":"Russia","city":"Irkutsk Oblast"},{"score":[3,3,3,4,5,5,5,5,5,5,5,4],"name":"Antalya, Turkey","lat":36.8968908,"lon":30.7133233,"country":"Turkey","city":"Antalya"},{"score":[3,4,5,4,4,3,3,3,2,2,2,2],"name":"Hội An, Quang Nam Province, Vietnam","lat":15.8800584,"lon":108.3380469,"country":"Vietnam","city":"Quang Nam Province"},{"score":[1,2,3,3,4,5,5,5,4,3,2,2],"name":"Aurillac, France","lat":44.930953,"lon":2.444997,"country":"France","city":"Auvergne-Rhône-Alpes"},{"score":[2,2,3,4,3,3,3,3,3,4,3,3],"name":"Porto Alegre - RS, Brazil","lat":-30.0346564,"lon":-51.2176584,"country":"Brazil","city":"State of Rio Grande do Sul"},{"score":[5,4,3,2,1,1,2,3,4,4,4,4],"name":"Pushkar, Rajasthan, India","lat":26.489749,"lon":74.5510856,"country":"India","city":"Rajasthan"},{"score":[5,5,5,5,5,5,4,3,3,3,4,4],"name":"Hagåtña, Guam","lat":13.4762824,"lon":144.7502228,"country":"Guam","city":"null"},{"score":[3,4,3,2,2,2,2,2,2,2,2,2],"name":"Kota Kinabalu, Sabah, Malaysia","lat":5.980408,"lon":116.0734568,"country":"Malaysia","city":"Sabah"},{"score":[3,3,4,4,3,2,1,1,2,4,4,3],"name":"Las Vegas, NV, USA","lat":36.1699412,"lon":-115.1398296,"country":"United States","city":"Nevada"},{"score":[1,1,1,2,2,5,4,5,3,2,2,1],"name":"Warsaw, Poland","lat":52.2296756,"lon":21.0122287,"country":"Poland","city":"Masovian Voivodeship"},{"score":[2,2,2,3,5,5,5,5,5,4,2,2],"name":"Rome, Metropolitan City of Rome, Italy","lat":41.9027835,"lon":12.4963655,"country":"Italy","city":"Lazio"},{"score":[1,1,1,1,1,2,4,2,2,1,1,1],"name":"Ulaanbaatar, Mongolia","lat":47.88639879999999,"lon":106.9057439,"country":"Mongolia","city":"Ulaanbaatar"},{"score":[3,5,5,4,4,4,3,2,1,1,2,2],"name":"Da Nang, Hải Châu, Da Nang, Vietnam","lat":16.0544068,"lon":108.2021667,"country":"Vietnam","city":"Da Nang"},{"score":[5,4,4,4,3,2,2,1,2,3,4,5],"name":"San Salvador, El Salvador","lat":13.6929403,"lon":-89.2181911,"country":"El Salvador","city":"San Salvador Department"},{"score":[1,1,2,3,3,4,4,5,4,3,2,2],"name":"Salzburg, Austria","lat":47.80949,"lon":13.05501,"country":"Austria","city":"Salzburg"},{"score":[4,4,3,2,2,1,1,1,1,2,3,4],"name":"N\u0027Djamena, Chad","lat":12.1348457,"lon":15.0557415,"country":"Chad","city":"N\u0027Djamena"},{"score":[2,3,3,4,4,5,5,5,5,4,3,2],"name":"53037 San Gimignano, Province of Siena, Italy","lat":43.4676324,"lon":11.0434909,"country":"Italy","city":"Tuscany"},{"score":[3,3,2,2,3,5,5,4,3,3,2,2],"name":"Kigali, Rwanda","lat":-1.9705786,"lon":30.1044288,"country":"Rwanda","city":"Kigali City"},{"score":[3,3,4,5,4,3,2,2,3,4,3,3],"name":"Dallas, TX, USA","lat":32.7766642,"lon":-96.79698789999999,"country":"United States","city":"Texas"},{"score":[1,2,2,1,1,1,3,4,4,4,3,2],"name":"Cayenne, French Guiana","lat":4.92242,"lon":-52.3134531,"country":"French Guiana","city":"Cayenne"},{"score":[2,2,3,4,5,5,5,5,5,4,2,2],"name":"Florence, Metropolitan City of Florence, Italy","lat":43.7695604,"lon":11.2558136,"country":"Italy","city":"Tuscany"},{"score":[2,2,3,5,5,3,3,3,3,5,3,2],"name":"Amman, Jordan","lat":31.9453666,"lon":35.9283716,"country":"Jordan","city":"Amman Governorate"},{"score":[4,4,3,2,2,2,2,3,3,2,2,4],"name":"Abidjan, Côte d\u0027Ivoire","lat":5.3599517,"lon":-4.0082563,"country":"Côte d\u0027Ivoire","city":"Lagunes Region"},{"score":[1,2,2,3,3,4,5,5,4,3,2,1],"name":"Niagara Falls, NY 14303, USA","lat":43.0828162,"lon":-79.07416289999999,"country":"United States","city":"New York"},{"score":[2,2,2,3,4,5,5,5,5,4,4,3],"name":"Saint Pierre, Reunion","lat":-21.3222914,"lon":55.5025595,"country":"Reunion","city":"Arrondissement of Saint-Pierre"},{"score":[4,4,5,3,3,2,1,1,2,3,4,4],"name":"Sharm El-Sheikh, Qesm Sharm Ash Sheikh, South Sinai Governorate, Egypt","lat":27.9158175,"lon":34.3299505,"country":"Egypt","city":"South Sinai Governorate"},{"score":[4,3,4,4,5,5,5,4,4,5,4,4],"name":"La Palma, Santa Cruz de Tenerife, Spain","lat":28.7133828,"lon":-17.9057813,"country":"Spain","city":"Canary Islands"},{"score":[2,2,3,4,5,5,4,4,5,4,3,2],"name":"Alanya, Antalya, Turkey","lat":36.544443,"lon":31.995408,"country":"Turkey","city":"Antalya"},{"score":[5,2,1,1,1,2,1,1,3,3,2,3],"name":"Ouagadougou, Burkina Faso","lat":12.3714277,"lon":-1.5196603,"country":"Burkina Faso","city":"Centre Region"},{"score":[3,3,3,3,3,2,3,3,4,4,3,3],"name":"Salvador - State of Bahia, Brazil","lat":-12.9722184,"lon":-38.5014136,"country":"Brazil","city":"State of Bahia"},{"score":[5,5,4,4,3,3,3,3,4,1,5,5],"name":"Cockburn Town TKCA 1ZZ, Turks and Caicos Islands","lat":21.4674584,"lon":-71.13891009999999,"country":"Turks and Caicos Islands","city":"Turks Islands"},{"score":[2,2,3,3,2,2,2,3,4,5,4,3],"name":"Paramaribo, Suriname","lat":5.8520355,"lon":-55.2038278,"country":"Suriname","city":"Paramaribo District"},{"score":[1,2,3,4,3,3,3,3,3,4,3,3],"name":"Baku, Azerbaijan","lat":40.40926169999999,"lon":49.8670924,"country":"Azerbaijan","city":"null"},{"score":[1,1,2,3,3,4,5,5,4,3,2,1],"name":"Rennes, France","lat":48.117266,"lon":-1.6777926,"country":"France","city":"Brittany"},{"score":[1,1,2,2,3,4,4,5,3,2,2,1],"name":"Ottawa, ON, Canada","lat":45.4215296,"lon":-75.69719309999999,"country":"Canada","city":"Ontario"},{"score":[5,5,5,4,2,2,2,2,2,2,4,5],"name":"Melbourne VIC, Australia","lat":-37.8136276,"lon":144.9630576,"country":"Australia","city":"Victoria"},{"score":[2,2,3,3,4,5,5,4,4,3,2,2],"name":"Bordeaux, France","lat":44.837789,"lon":-0.57918,"country":"France","city":"Nouvelle-Aquitaine"},{"score":[2,3,3,4,5,5,4,4,5,4,3,2],"name":"Lisbon, Portugal","lat":38.7222524,"lon":-9.1393366,"country":"Portugal","city":"Lisbon"},{"score":[1,1,2,3,4,4,5,5,5,4,3,2],"name":"Ankara, Turkey","lat":39.9333635,"lon":32.8597419,"country":"Turkey","city":"Ankara"},{"score":[1,1,2,2,3,4,5,4,3,2,2,1],"name":"Montreal, QC, Canada","lat":45.5016889,"lon":-73.567256,"country":"Canada","city":"Quebec"},{"score":[1,1,1,2,5,4,1,3,5,2,1,1],"name":"Beijing, China","lat":39.90419989999999,"lon":116.4073963,"country":"China","city":"Beijing"},{"score":[2,2,3,3,4,5,5,5,5,4,3,2],"name":"Ponta Delgada, Portugal","lat":37.7428301,"lon":-25.6805868,"country":"Portugal","city":"Azores"},{"score":[4,4,4,5,5,4,4,4,4,4,5,5],"name":"Lima, Peru","lat":-12.0463731,"lon":-77.042754,"country":"Peru","city":"Callao Region"},{"score":[2,2,2,3,4,5,5,5,5,5,4,3],"name":"Moroni, Comoros","lat":-11.7172157,"lon":43.2473146,"country":"Comoros","city":"Ngazidja"},{"score":[2,2,3,4,5,5,5,5,4,3,3,2],"name":"Matā\u0027utu, Wallis and Futuna","lat":-13.2825091,"lon":-176.1764475,"country":"Wallis and Futuna","city":"Wallis"},{"score":[3,3,3,4,4,4,2,3,5,5,4,3],"name":"Brisbane QLD, Australia","lat":-27.4697707,"lon":153.0251235,"country":"Australia","city":"Queensland"},{"score":[1,2,3,3,4,5,5,5,5,4,3,2],"name":"9490 Vaduz, Liechtenstein","lat":47.1410303,"lon":9.5209277,"country":"Liechtenstein","city":"Vaduz"},{"score":[4,4,3,3,2,2,2,2,3,3,4,4],"name":"Hua Hin District, Prachuap Khiri Khan, Thailand","lat":12.568452,"lon":99.9577223,"country":"Thailand","city":"Prachuap Khiri Khan"},{"score":[4,4,2,2,3,4,5,4,4,3,2,3],"name":"São Tomé, São Tomé and Príncipe","lat":0.3301924,"lon":6.733343,"country":"São Tomé and Príncipe","city":"Sao Tome"},{"score":[3,3,4,5,4,4,4,4,5,4,4,3],"name":"Tel Aviv-Yafo, Israel","lat":32.0852999,"lon":34.78176759999999,"country":"Israel","city":"Tel Aviv District"},{"score":[5,5,5,4,3,3,2,2,2,3,3,4],"name":"Santo Domingo, Dominican Republic","lat":18.4860575,"lon":-69.93121169999999,"country":"Dominican Republic","city":"Distrito Nacional"},{"score":[2,2,2,4,4,4,4,4,5,4,3,2],"name":"Antananarivo, Madagascar","lat":-18.8791902,"lon":47.5079055,"country":"Madagascar","city":"Antananarivo Province"},{"score":[2,2,3,3,4,5,5,4,5,4,3,3],"name":"80067 Sorrento, Metropolitan City of Naples, Italy","lat":40.6262925,"lon":14.3757985,"country":"Italy","city":"Campania"},{"score":[1,2,3,3,3,4,5,5,4,3,2,2],"name":"44600 Saint-Nazaire, France","lat":47.2734979,"lon":-2.213848,"country":"France","city":"Pays de la Loire"},{"score":[1,2,2,3,3,4,5,4,4,3,3,2],"name":"Skopje, Macedonia (FYROM)","lat":41.9973462,"lon":21.4279956,"country":"Macedonia (FYROM)","city":"Skopje"},{"score":[1,1,1,2,3,3,4,4,3,3,2,1],"name":"Saint-Pierre, St Pierre and Miquelon","lat":46.7758459,"lon":-56.1806363,"country":"Saint Pierre and Miquelon","city":"Saint-Pierre"},{"score":[2,3,3,4,5,5,5,4,5,4,3,2],"name":"8200 Albufeira, Portugal","lat":37.0890719,"lon":-8.2478796,"country":"Portugal","city":"Faro District"},{"score":[1,2,2,2,4,4,4,4,4,3,2,2],"name":"Chicago, IL, USA","lat":41.8781136,"lon":-87.6297982,"country":"United States","city":"Illinois"},{"score":[1,1,2,3,3,4,4,3,4,3,2,2],"name":"Yerevan, Armenia","lat":40.1791857,"lon":44.4991029,"country":"Armenia","city":"Yerevan"},{"score":[2,2,2,3,3,4,5,5,3,3,2,2],"name":"Vancouver, BC, Canada","lat":49.2827291,"lon":-123.1207375,"country":"Canada","city":"British Columbia"},{"score":[2,2,2,3,4,5,4,4,5,5,4,3],"name":"Cirque de Mafate, Reunion","lat":-21.0499146,"lon":55.4272377,"country":"Reunion","city":"Saint-Paul"},{"score":[5,4,4,3,3,2,2,2,2,3,3,4],"name":"Nouakchott, Mauritania","lat":18.0735299,"lon":-15.9582372,"country":"Mauritania","city":"Nouakchott"},{"score":[2,2,2,2,3,4,4,4,3,3,2,2],"name":"Belfast, UK","lat":54.59728500000001,"lon":-5.93012,"country":"United Kingdom","city":"Northern Ireland"},{"score":[1,2,2,3,3,4,4,4,3,2,2,1],"name":"Aberdeen, UK","lat":57.149717,"lon":-2.094278,"country":"United Kingdom","city":"Scotland"},{"score":[2,2,2,2,2,2,4,4,2,2,2,2],"name":"Edinburgh, UK","lat":55.953252,"lon":-3.188267,"country":"United Kingdom","city":"Scotland"},{"score":[1,2,2,3,3,4,5,5,4,3,2,2],"name":"Sofia, Bulgaria","lat":42.6977082,"lon":23.3218675,"country":"Bulgaria","city":"Sofia City Province"},{"score":[5,5,5,4,3,3,3,3,3,4,5,5],"name":"Port Elizabeth, South Africa","lat":-33.7139247,"lon":25.5207358,"country":"South Africa","city":"Eastern Cape"},{"score":[1,1,2,3,3,4,5,5,4,3,2,1],"name":"Aachen, Germany","lat":50.7753455,"lon":6.083886800000001,"country":"Germany","city":"North Rhine-Westphalia"},{"score":[5,5,5,5,4,3,3,2,3,3,2,4],"name":"San Juan, Puerto Rico","lat":18.4655394,"lon":-66.1057355,"country":"Puerto Rico","city":"San Juan"},{"score":[2,3,3,3,4,4,5,5,5,4,3,2],"name":"San Francisco, CA, USA","lat":37.7749295,"lon":-122.4194155,"country":"United States","city":"California"},{"score":[2,2,3,4,5,5,5,4,5,4,3,2],"name":"Rhodes, Greece","lat":36.4340533,"lon":28.2176379,"country":"Greece","city":"null"},{"score":[4,3,3,3,2,1,1,1,2,2,3,4],"name":"Djibouti","lat":11.825138,"lon":42.590275,"country":"Djibouti","city":"null"},{"score":[2,2,2,2,2,3,4,4,4,4,4,3],"name":"Belém - State of Pará, Brazil","lat":-1.4557794,"lon":-48.4901968,"country":"Brazil","city":"State of Pará"},{"score":[2,2,2,3,4,3,3,3,3,4,2,2],"name":"Kamakura, Kanagawa Prefecture, Japan","lat":35.3192254,"lon":139.5466868,"country":"Japan","city":"Kanagawa Prefecture"},{"score":[4,5,4,4,3,3,2,1,2,2,2,4],"name":"Sainte-Anne, Martinique","lat":14.4408054,"lon":-60.8493059,"country":"Martinique","city":"Arrondissement of Le Marin"},{"score":[2,2,3,3,4,5,5,5,5,4,3,2],"name":"Paxi, Greece","lat":39.1977287,"lon":20.170041,"country":"Greece","city":"null"},{"score":[3,4,5,3,2,1,1,2,3,4,5,4],"name":"Lantau Island, Hong Kong","lat":22.2664984,"lon":113.941751,"country":"Hong Kong","city":"New Territories"},{"score":[4,4,4,4,5,5,5,5,5,5,5,4],"name":"El Hierro, Santa Cruz de Tenerife, Spain","lat":27.7254993,"lon":-18.024301,"country":"Spain","city":"Canary Islands"},{"score":[1,1,2,2,3,4,4,4,3,2,2,1],"name":"Limerick, Ireland","lat":52.6680204,"lon":-8.6304976,"country":"Ireland","city":"County Limerick"},{"score":[2,2,2,2,5,5,5,5,5,4,2,2],"name":"Istanbul, Turkey","lat":41.0082376,"lon":28.9783589,"country":"Turkey","city":"Istanbul"},{"score":[2,2,2,3,4,5,5,5,5,5,4,3],"name":"Saint-Denis, Reunion","lat":-20.8906596,"lon":55.4550536,"country":"Reunion","city":"Saint-Denis"},{"score":[2,2,3,3,4,5,5,5,5,4,3,2],"name":"Monaco","lat":43.73841760000001,"lon":7.424615799999999,"country":"Monaco","city":"null"},{"score":[5,4,4,4,3,3,2,1,2,2,3,4],"name":"Guinea","lat":9.945587,"lon":-9.696645,"country":"Guinea","city":"null"},{"score":[3,2,3,4,5,5,5,5,5,4,4,3],"name":"Port Vila, Vanuatu","lat":-17.7332512,"lon":168.3273245,"country":"Vanuatu","city":"Shefa Province"},{"score":[5,5,4,4,3,3,2,2,3,3,4,4],"name":"Marie-Galante, Guadeloupe","lat":15.9235421,"lon":-61.2571513,"country":"Guadeloupe","city":"Grande-Terre"},{"score":[2,2,3,3,4,5,4,4,5,3,2,2],"name":"Madrid, Spain","lat":40.4167754,"lon":-3.7037902,"country":"Spain","city":"Community of Madrid"},{"score":[3,3,4,4,4,2,1,2,3,4,4,3],"name":"Tozeur, Tunisia","lat":33.918534,"lon":8.1229329,"country":"Tunisia","city":"Tozeur"},{"score":[4,4,3,2,3,3,3,3,3,3,3,3],"name":"Bogotá, Bogota, Colombia","lat":4.710988599999999,"lon":-74.072092,"country":"Colombia","city":"Bogota"},{"score":[2,2,2,3,4,4,4,4,4,3,2,2],"name":"Washington, USA","lat":47.7510741,"lon":-120.7401385,"country":"United States","city":"Washington"},{"score":[2,2,3,4,5,4,4,4,5,4,3,2],"name":"Jerusalem, Israel","lat":31.768319,"lon":35.21371,"country":"Israel","city":"Jerusalem District"},{"score":[4,4,4,4,4,3,4,4,4,3,4,4],"name":"Palikir, Pohnpei, Federated States of Micronesia","lat":6.9147118,"lon":158.1610274,"country":"Federated States of Micronesia","city":"Pohnpei"},{"score":[1,1,2,3,3,4,5,5,4,3,2,1],"name":"Calgary, AB, Canada","lat":51.0486151,"lon":-114.0708459,"country":"Canada","city":"Alberta"},{"score":[2,2,2,2,5,5,5,5,5,5,2,2],"name":"Izmir, İzmir, Turkey","lat":38.423734,"lon":27.142826,"country":"Turkey","city":"İzmir"},{"score":[2,3,3,3,4,5,5,5,4,4,3,2],"name":"Maputo, Mozambique","lat":-25.891968,"lon":32.6051351,"country":"Mozambique","city":"Maputo City"},{"score":[1,2,2,3,3,4,4,4,1,3,2,1],"name":"Killarney, Co. Kerry, Ireland","lat":52.05993530000001,"lon":-9.5044265,"country":"Ireland","city":"County Kerry"},{"score":[2,3,3,3,4,5,4,4,5,4,3,2],"name":"Meknes, Morocco","lat":33.8730164,"lon":-5.5407299,"country":"Morocco","city":"Meknes-Tafilalet"},{"score":[2,2,3,3,4,5,5,5,5,5,4,3],"name":"123 Avenue Leconte de Lisle, Saint Gilles les Bains 97434, Reunion","lat":-21.0770556,"lon":55.2221724,"country":"Reunion","city":"null"},{"score":[3,3,2,2,3,4,4,4,4,3,3,3],"name":"Quito, Ecuador","lat":-0.1806532,"lon":-78.4678382,"country":"Ecuador","city":"Pichincha"},{"score":[2,2,2,2,5,5,2,2,5,5,2,2],"name":"Damascus, Syria","lat":33.5138073,"lon":36.2765279,"country":"Syria","city":"Damascus Governorate"},{"score":[2,2,3,4,5,5,5,4,5,4,3,2],"name":"Tilos, Greece","lat":36.4230663,"lon":27.3733989,"country":"Greece","city":"null"},{"score":[2,2,2,2,3,3,4,4,3,3,2,1],"name":"Liverpool, UK","lat":53.4083714,"lon":-2.9915726,"country":"United Kingdom","city":"England"},{"score":[4,4,3,3,3,2,2,2,4,4,4,4],"name":"Sydney NSW, Australia","lat":-33.8688197,"lon":151.2092955,"country":"Australia","city":"New South Wales"},{"score":[5,4,3,2,2,1,1,2,2,2,3,4],"name":"Belmopan, Belize","lat":17.2510114,"lon":-88.7590201,"country":"Belize","city":"Cayo District"},{"score":[1,1,1,2,2,4,4,4,2,2,1,1],"name":"St Petersburg, Russia","lat":59.9342802,"lon":30.3350986,"country":"Russia","city":"null"},{"score":[4,3,3,3,3,4,4,5,5,5,5,5],"name":"Noumea, New Caledonia","lat":-22.2558234,"lon":166.4505243,"country":"New Caledonia","city":"South Province"},{"score":[2,2,2,3,5,5,5,5,5,4,2,2],"name":"Vlorë, Albania","lat":40.4660668,"lon":19.491356,"country":"Albania","city":"Vlorë County"},{"score":[5,4,3,2,1,1,1,1,1,2,3,5],"name":"Riyadh Saudi Arabia","lat":24.7135517,"lon":46.6752957,"country":"Saudi Arabia","city":"Riyadh Province"},{"score":[2,2,2,3,4,5,5,5,4,3,2,2],"name":"Asuncion, Paraguay","lat":-25.2637399,"lon":-57.57592599999999,"country":"Paraguay","city":"null"},{"score":[2,2,2,3,5,2,1,2,4,3,2,1],"name":"Kandahar, Afghanistan","lat":31.628871,"lon":65.7371749,"country":"Afghanistan","city":"Kandahar"},{"score":[3,4,4,3,3,3,2,2,3,3,4,4],"name":"Perth WA, Australia","lat":-31.9505269,"lon":115.8604572,"country":"Australia","city":"Western Australia"},{"score":[2,3,3,4,5,4,3,3,5,4,3,2],"name":"Tehran, Tehran Province, Iran","lat":35.6891975,"lon":51.3889736,"country":"Iran","city":"Tehran Province"},{"score":[2,2,3,3,4,5,5,5,5,4,3,2],"name":"Montpellier, France","lat":43.610769,"lon":3.876716,"country":"France","city":"Occitanie"},{"score":[5,4,4,3,2,1,2,2,3,3,3,4],"name":"Khartoum, Sudan","lat":15.5006544,"lon":32.5598994,"country":"Sudan","city":"Khartoum"},{"score":[1,1,2,3,3,4,5,5,5,3,3,1],"name":"Kuta Beach, Kuta, Badung Regency, Bali, Indonesia","lat":-8.7184926,"lon":115.1686322,"country":"Indonesia","city":"Bali"},{"score":[1,1,2,2,3,4,4,4,3,3,2,1],"name":"Inverness, UK","lat":57.477773,"lon":-4.224721,"country":"United Kingdom","city":"Scotland"},{"score":[1,1,1,2,2,3,4,4,2,2,1,1],"name":"Oslo, Norway","lat":59.9138688,"lon":10.7522454,"country":"Norway","city":"Oslo"},{"score":[5,4,3,2,1,1,1,1,1,1,3,4],"name":"Abu Dhabi - United Arab Emirates","lat":23.4677235,"lon":53.7369154,"country":"United Arab Emirates","city":"Abu Dhabi"},{"score":[5,5,5,4,3,2,2,2,3,3,3,4],"name":"Havana, Cuba","lat":23.1135925,"lon":-82.3665956,"country":"Cuba","city":"Havana"},{"score":[3,3,3,2,2,2,2,3,4,4,4,4],"name":"Recife - State of Pernambuco, Brazil","lat":-8.0475622,"lon":-34.8769643,"country":"Brazil","city":"State of Pernambuco"},{"score":[3,2,3,4,3,2,2,3,4,5,4,3],"name":"Georgetown, Guyana","lat":6.8012793,"lon":-58.1551255,"country":"Guyana","city":"Demerara-Mahaica"},{"score":[3,4,3,2,3,3,4,4,4,3,2,2],"name":"Nha Trang, Khanh Hoa Province, Vietnam","lat":12.2387911,"lon":109.1967488,"country":"Vietnam","city":"Khanh Hoa Province"},{"score":[5,5,4,3,3,3,2,2,3,3,4,5],"name":"Montevideo, Montevideo Department, Uruguay","lat":-34.9011127,"lon":-56.16453139999999,"country":"Uruguay","city":"Montevideo Department"},{"score":[5,5,5,5,4,3,2,2,3,3,4,5],"name":"Gustavia, St Barthélemy","lat":17.8964345,"lon":-62.85220099999999,"country":"Saint Barthélemy","city":"null"},{"score":[5,4,3,2,3,2,2,2,2,3,4,5],"name":"Krong Siem Reap, Cambodia","lat":13.4124693,"lon":103.8669857,"country":"Cambodia","city":"Siem Reap Province"},{"score":[1,1,2,3,3,4,5,5,4,3,2,1],"name":"Riga, Latvia","lat":56.9496487,"lon":24.1051865,"country":"Latvia","city":"null"},{"score":[3,3,4,4,3,3,2,1,2,3,5,4],"name":"Islamabad, Pakistan","lat":33.7293882,"lon":73.0931461,"country":"Pakistan","city":"Islamabad Capital Territory"},{"score":[5,5,4,4,4,1,3,3,3,1,5,5],"name":"Managua, Nicaragua","lat":12.1149926,"lon":-86.2361744,"country":"Nicaragua","city":"Managua Department"},{"score":[3,3,4,5,3,3,2,2,3,4,4,3],"name":"Houston, TX, USA","lat":29.7604267,"lon":-95.3698028,"country":"United States","city":"Texas"},{"score":[5,5,5,5,5,4,3,3,2,2,3,4],"name":"Saipan, CNMI","lat":15.1515153,"lon":145.7297891,"country":"Northern Mariana Islands","city":"Saipan"},{"score":[4,4,4,4,4,3,2,2,3,4,4,4],"name":"Addis Ababa, Ethiopia","lat":8.9806034,"lon":38.7577605,"country":"Ethiopia","city":"Addis Ababa"},{"score":[2,2,3,3,4,3,3,3,4,4,3,2],"name":"Hiroshima, Hiroshima Prefecture, Japan","lat":34.3852029,"lon":132.4552927,"country":"Japan","city":"Hiroshima Prefecture"},{"score":[1,2,2,3,3,4,5,5,4,3,2,1],"name":"Luxembourg City, Luxembourg","lat":49.61162100000001,"lon":6.1319346,"country":"Luxembourg","city":"Luxembourg District"},{"score":[5,5,5,4,3,3,3,3,3,4,5,5],"name":"Cape Town, South Africa","lat":-33.9248685,"lon":18.4240553,"country":"South Africa","city":"Western Cape"},{"score":[5,5,5,4,3,2,2,2,3,3,3,4],"name":"Patong, Kathu District, Phuket, Thailand","lat":7.896915099999998,"lon":98.3020123,"country":"Thailand","city":"Phuket"},{"score":[4,4,5,4,4,3,2,1,3,4,5,4],"name":"Luang Prabang Province, Laos","lat":20.0656229,"lon":102.6216211,"country":"Laos","city":"Luang Prabang Province"},{"score":[2,2,3,4,5,5,4,4,5,5,4,3],"name":"Bodrum, Muğla Province, Turkey","lat":37.034407,"lon":27.43054,"country":"Turkey","city":"Muğla Province"},{"score":[1,2,2,3,4,5,5,5,5,4,3,2],"name":"Port Moresby, Papua New Guinea","lat":-9.4780123,"lon":147.1506542,"country":"Papua New Guinea","city":"National Capital District"},{"score":[3,3,3,4,5,4,4,3,4,4,4,3],"name":"Hammamet, Tunisia","lat":36.4072574,"lon":10.6224706,"country":"Tunisia","city":"Nabeul"},{"score":[2,2,2,3,5,5,5,5,5,5,2,2],"name":"Thessaloniki, Greece","lat":40.6400629,"lon":22.9444191,"country":"Greece","city":"null"},{"score":[4,4,4,5,5,5,5,4,5,5,4,4],"name":"Las Palmas de Gran Canaria, Las Palmas, Spain","lat":28.1235459,"lon":-15.4362574,"country":"Spain","city":"Canary Islands"},{"score":[2,2,2,3,4,5,5,5,5,5,4,3],"name":"Mamoudzou, Mayotte","lat":-12.7809488,"lon":45.227872,"country":"Mayotte","city":"Mamoudzou"},{"score":[3,3,3,4,4,4,4,4,4,4,4,3],"name":"Hell-Bourg, Reunion","lat":-21.05833,"lon":55.5164145,"country":"Reunion","city":"Saint-Benoît"},{"score":[2,2,2,3,4,4,5,5,4,3,3,2],"name":"Foz do Iguaçu, State of Paraná, Brazil","lat":-25.5163356,"lon":-54.58537639999999,"country":"Brazil","city":"State of Paraná"},{"score":[1,1,2,2,3,4,5,5,3,3,2,1],"name":"Gdańsk, Poland","lat":54.35202520000001,"lon":18.6466384,"country":"Poland","city":"Pomeranian Voivodeship"},{"score":[5,5,5,5,2,1,2,5,4,4,5,5],"name":"Muscat, Oman","lat":23.58589,"lon":58.4059227,"country":"Oman","city":"Muscat Governorate"},{"score":[2,2,3,3,4,5,5,5,4,3,3,3],"name":"Mahebourg, Mauritius","lat":-20.4059505,"lon":57.7034222,"country":"Mauritius","city":"Grand Port District"},{"score":[3,4,5,3,2,1,1,2,3,4,5,4],"name":"Hong Kong","lat":22.396428,"lon":114.109497,"country":"Hong Kong","city":"null"},{"score":[1,1,2,3,3,4,4,4,4,2,2,2],"name":"Hamburg, Germany","lat":53.5510846,"lon":9.9936819,"country":"Germany","city":"Hamburg"},{"score":[4,4,3,2,2,1,3,3,2,2,3,4],"name":"Lagos, Nigeria","lat":6.5243793,"lon":3.3792057,"country":"Nigeria","city":"Lagos"},{"score":[2,2,3,3,4,5,4,4,5,4,3,2],"name":"Marmaris, Muğla Province, Turkey","lat":36.854936,"lon":28.270878,"country":"Turkey","city":"Muğla Province"},{"score":[5,5,3,3,3,5,5,5,5,5,4,4],"name":"Nairobi, Kenya","lat":-1.2920659,"lon":36.8219462,"country":"Kenya","city":"Nairobi County"},{"score":[1,1,2,3,3,4,4,3,4,2,2,1],"name":"Sligo, Ireland","lat":54.27661029999999,"lon":-8.4760888,"country":"Ireland","city":"County Sligo"},{"score":[5,4,3,3,1,2,3,3,4,4,5,5],"name":"Phuket, Mueang Phuket District, Phuket 83000, Thailand","lat":7.8804479,"lon":98.3922504,"country":"Thailand","city":"Phuket"},{"score":[4,3,3,2,1,1,2,2,1,1,1,2],"name":"Bandar Seri Begawan, Brunei","lat":4.903052199999999,"lon":114.939821,"country":"Brunei","city":"Brunei-Muara District"},{"score":[2,2,2,3,4,5,5,5,5,4,4,3],"name":"Saint-Paul, Reunion","lat":-21.0452623,"lon":55.33647029999999,"country":"Reunion","city":"Arrondissement of Saint-Paul"},{"score":[1,1,1,2,2,4,4,3,4,2,1,1],"name":"Vladivostok, Primorsky Krai, Russia","lat":43.1198091,"lon":131.8869243,"country":"Russia","city":"Primorsky Krai"},{"score":[5,5,4,3,2,1,1,1,1,2,3,4],"name":"Dubai - United Arab Emirates","lat":24.9821547,"lon":55.402868,"country":"United Arab Emirates","city":"Dubai"},{"score":[3,2,2,1,1,2,2,2,2,3,3,4],"name":"Bamako, Mali","lat":12.6392316,"lon":-8.0028892,"country":"Mali","city":"Bamako Capital District"},{"score":[5,5,4,3,2,1,1,1,2,3,4,5],"name":"Doha, Qatar","lat":25.2854473,"lon":51.53103979999999,"country":"Qatar","city":"Doha"},{"score":[5,5,5,3,1,1,1,1,1,3,5,5],"name":"Dhaka, Bangladesh","lat":23.810332,"lon":90.4125181,"country":"Bangladesh","city":"Dhaka Division"},{"score":[5,5,4,3,3,2,2,2,3,4,4,5],"name":"Krabi, Thailand","lat":8.0862997,"lon":98.9062835,"country":"Thailand","city":"Krabi"},{"score":[3,3,3,4,3,2,2,3,3,4,5,4],"name":"Maseru, Lesotho","lat":-29.36321879999999,"lon":27.5143603,"country":"Lesotho","city":"Maseru"},{"score":[5,4,3,3,2,2,3,3,3,3,4,5],"name":"Cotonou, Benin","lat":6.3702928,"lon":2.3912362,"country":"Benin","city":"Littoral Department"},{"score":[1,1,2,2,2,4,4,4,3,2,2,1],"name":"Sarajevo, Bosnia and Herzegovina","lat":43.8562586,"lon":18.4130763,"country":"Bosnia and Herzegovina","city":"Federation of Bosnia and Herzegovina"},{"score":[5,5,4,4,3,2,1,2,2,3,4,5],"name":"Mũi Né, Phan Thiet, Bình Thuận Province, Vietnam","lat":10.9332105,"lon":108.2871837,"country":"Vietnam","city":"Bình Thuận Province"},{"score":[1,1,2,3,4,5,5,5,4,3,2,1],"name":"Kiev, Ukraine, 02000","lat":50.4501,"lon":30.5234,"country":"Ukraine","city":"null"},{"score":[5,5,5,4,3,3,3,3,4,4,5,5],"name":"Port-au-Prince, Haiti","lat":18.594395,"lon":-72.3074326,"country":"Haiti","city":"Ouest Department"},{"score":[5,5,4,4,3,3,2,2,3,3,4,5],"name":"Pointe-a-Pitre, Guadeloupe","lat":16.2376869,"lon":-61.5340424,"country":"Guadeloupe","city":"Grande-Terre"},{"score":[3,3,3,4,4,4,4,4,4,4,4,3],"name":"Salazie, Reunion","lat":-21.0447249,"lon":55.5136433,"country":"Reunion","city":"Saint-Benoît"},{"score":[3,4,5,3,2,1,1,2,3,4,5,4],"name":"Kowloon, Hong Kong","lat":22.3185673,"lon":114.1796057,"country":"Hong Kong","city":"Kowloon"},{"score":[3,2,3,3,4,4,5,5,5,4,3,2],"name":"Suva, Fiji","lat":-18.1248086,"lon":178.4500789,"country":"Fiji","city":"Central Division"},{"score":[2,2,3,3,4,5,5,5,5,4,3,2],"name":"San Marino","lat":43.94236,"lon":12.457777,"country":"San Marino","city":"null"},{"score":[2,2,5,2,1,1,2,3,3,4,4,2],"name":"New Delhi, Delhi, India","lat":28.6139391,"lon":77.2090212,"country":"India","city":"Delhi"},{"score":[5,5,5,5,4,3,3,3,3,3,3,4],"name":"Auckland, New Zealand","lat":-36.8484597,"lon":174.7633315,"country":"New Zealand","city":"Auckland"},{"score":[5,4,3,2,2,3,5,4,4,3,3,3],"name":"Kampala, Uganda","lat":0.3475964,"lon":32.5825197,"country":"Uganda","city":"Central Region"},{"score":[1,1,2,3,3,4,5,5,4,3,2,1],"name":"Lausanne, Switzerland","lat":46.5196535,"lon":6.6322734,"country":"Switzerland","city":"Vaud"},{"score":[1,1,2,2,5,5,5,5,4,2,2,1],"name":"Tashkent, Uzbekistan","lat":41.2994958,"lon":69.2400734,"country":"Uzbekistan","city":"Tashkent Province"},{"score":[1,1,1,2,2,3,4,4,3,2,1,1],"name":"Trondheim, Norway","lat":63.4305149,"lon":10.3950528,"country":"Norway","city":"Sor-Trondelag"},{"score":[1,1,2,3,4,4,5,5,4,3,2,2],"name":"Nantes, France","lat":47.218371,"lon":-1.553621,"country":"France","city":"Pays de la Loire"},{"score":[2,2,3,3,4,3,3,3,3,4,4,3],"name":"tt. Sa Pa, Sa Pa, Lào Cai, Vietnam","lat":22.3363608,"lon":103.8437852,"country":"Vietnam","city":"Lào Cai"},{"score":[1,1,1,3,4,4,5,5,5,4,3,1],"name":"Pape\u0027ete, French Polynesia","lat":-17.5516251,"lon":-149.5584758,"country":"French Polynesia","city":"Windward Islands"},{"score":[2,2,2,3,5,5,5,5,5,4,3,2],"name":"00120, Vatican City","lat":41.902916,"lon":12.453389,"country":"Vatican City","city":"null"},{"score":[1,3,1,3,3,3,3,1,3,1,1,1],"name":"Singapore","lat":1.352083,"lon":103.819836,"country":"Singapore","city":"null"},{"score":[2,2,3,4,4,5,4,5,4,3,2,2],"name":"Mbabane, Swaziland","lat":-26.3054482,"lon":31.1366715,"country":"Swaziland","city":"Hhohho Region"},{"score":[1,1,2,3,4,5,5,5,4,3,2,2],"name":"Strasbourg, France","lat":48.5734053,"lon":7.752111299999999,"country":"France","city":"Grand Est"},{"score":[3,2,2,2,1,1,1,1,1,2,2,3],"name":"McMurdo Station, Antarctica","lat":-77.8418779,"lon":166.6863447,"country":"Antarctica","city":"null"},{"score":[1,1,1,1,3,4,5,5,5,4,3,1],"name":"Manaus, State of Amazonas, Brazil","lat":-3.1190275,"lon":-60.0217314,"country":"Brazil","city":"State of Amazonas"},{"score":[1,1,1,2,3,3,5,5,4,2,2,1],"name":"Bucharest, Romania","lat":44.4267674,"lon":26.1025384,"country":"Romania","city":"Bucharest"},{"score":[2,2,2,2,4,5,5,5,5,3,2,2],"name":"Marseille, France","lat":43.296482,"lon":5.36978,"country":"France","city":"Provence-Alpes-Côte d\u0027Azur"},{"score":[5,5,4,3,2,1,1,2,3,4,4,5],"name":"Goa, India","lat":15.2993265,"lon":74.12399599999999,"country":"India","city":"Goa"},{"score":[1,2,2,3,3,4,4,5,4,3,2,2],"name":"Burgas, Bulgaria","lat":42.50479259999999,"lon":27.4626361,"country":"Bulgaria","city":"Burgas"},{"score":[4,4,4,5,4,3,2,3,3,4,4,4],"name":"Port of Spain, Trinidad and Tobago","lat":10.6549013,"lon":-61.50192559999999,"country":"Trinidad and Tobago","city":"Port of Spain"},{"score":[2,2,3,4,4,3,3,3,3,3,3,2],"name":"Tokyo, Japan","lat":35.6894875,"lon":139.6917064,"country":"Japan","city":"Tokyo"},{"score":[5,5,5,5,4,3,1,1,1,1,1,3],"name":"Manila, Metro Manila, Philippines","lat":14.5995124,"lon":120.9842195,"country":"Philippines","city":"Metro Manila"},{"score":[1,1,2,3,4,5,4,4,4,3,2,1],"name":"Berlin, Germany","lat":52.52000659999999,"lon":13.404954,"country":"Germany","city":"Berlin"},{"score":[5,5,5,5,4,3,2,2,3,3,3,4],"name":"St George\u0027s, Grenada","lat":12.0560975,"lon":-61.7487996,"country":"Grenada","city":"Saint George"},{"score":[3,3,3,3,4,4,4,3,4,3,3,3],"name":"Cusco, Peru","lat":-13.53195,"lon":-71.96746259999999,"country":"Peru","city":"Cusco"},{"score":[1,2,2,3,3,4,5,5,4,3,2,2],"name":"Antwerp, Belgium","lat":51.2194475,"lon":4.4024643,"country":"Belgium","city":"Flanders"},{"score":[1,1,2,3,3,4,4,4,4,3,2,1],"name":"Munich, Germany","lat":48.1351253,"lon":11.5819805,"country":"Germany","city":"Bavaria"},{"score":[5,5,3,3,2,2,2,2,2,4,5,5],"name":"Vientiane, Laos","lat":17.9757058,"lon":102.6331035,"country":"Laos","city":"Vientiane Prefecture"},{"score":[1,2,3,4,5,4,3,3,4,3,2,1],"name":"Dushanbe, Tajikistan","lat":38.5597722,"lon":68.7870384,"country":"Tajikistan","city":"Districts of Republican Subordination"},{"score":[5,5,5,4,3,3,2,2,2,3,3,5],"name":"Punta Cana, Dominican Republic","lat":18.5820101,"lon":-68.40547289999999,"country":"Dominican Republic","city":"La Altagracia Province"}]